City_ID,City,Lat,Lng,Max Temp,Humidity,Cloudiness,Wind Speed,Country,Date
0,airai,-8.9266,125.4092,25.23,37,57,1.3,TL,1670380639
1,hamilton,39.1834,-84.5333,12.77,97,100,8.05,US,1670380185
2,ushuaia,-54.8,-68.3,4.81,48,75,5.14,AR,1670380640
3,bethel,41.3712,-73.414,12.47,87,100,0.45,US,1670380641
4,dikson,73.5069,80.5464,-15.64,94,100,5.68,RU,1670380641
5,tarko-sale,64.9225,77.785,-19.04,96,27,5.47,RU,1670380642
6,mitsamiouli,-11.3847,43.2844,27.04,74,56,4.82,KM,1670380643
7,porbandar,21.6422,69.6093,21.4,40,2,4.51,IN,1670380643
8,vuktyl,63.8567,57.3094,-15.06,88,98,5.08,RU,1670380409
9,puerto ayora,-0.7393,-90.3518,20.31,88,20,0.45,EC,1670380645
10,leningradskiy,69.3833,178.4167,-20.93,96,4,2.48,RU,1670380645
11,libreville,0.3925,9.4537,23.01,100,75,2.57,GA,1670380646
12,matara,5.9485,80.5353,25.22,85,100,2.3,LK,1670380500
13,lchashen,40.5176,44.9319,-8.88,93,72,1.69,AM,1670380647
14,porto walter,-8.2686,-72.7439,23.8,84,100,1.11,BR,1670380647
15,vaini,-21.2,-175.2,29.09,79,40,4.12,TO,1670380648
16,okhotsk,59.3833,143.3,-24.61,92,40,2.62,RU,1670380649
17,jamestown,42.097,-79.2353,6.77,97,100,2.57,US,1670380580
18,east london,-33.0153,27.9116,16.63,83,0,4.63,ZA,1670380650
19,amparafaravola,-17.5833,48.2167,16.79,87,63,2.08,MG,1670380650
20,pernik,42.6,23.0333,3.04,94,99,1.43,BG,1670380651
21,bocas del toro,9.3333,-82.25,25.37,76,7,1.91,PA,1670380652
22,kodiak,57.79,-152.4072,2.73,65,20,10.29,US,1670380476
23,mar del plata,-38.0023,-57.5575,19.01,78,40,4.63,AR,1670380381
24,katsuura,35.1333,140.3,11.97,61,82,3.64,JP,1670380653
25,churapcha,62.0025,132.4325,-36.79,100,90,1.47,RU,1670380654
26,san patricio,28.017,-97.5169,22.92,89,81,5.81,US,1670380582
27,puerto leguizamo,-0.1934,-74.7819,22.14,96,98,0.46,CO,1670380655
28,sao jose da coroa grande,-8.8978,-35.1478,24.7,83,25,2.28,BR,1670380655
29,kaitangata,-46.2817,169.8464,15.14,56,2,7.98,NZ,1670380444
30,mount isa,-20.7333,139.5,38.87,18,0,4.12,AU,1670380439
31,cururupu,-1.8283,-44.8683,23.69,87,11,1.53,BR,1670380656
32,new norfolk,-42.7826,147.0587,17.62,39,41,2.5,AU,1670380436
33,katima mulilo,-17.5,24.2667,18.98,85,100,3.04,NA,1670380657
34,barrow,71.2906,-156.7887,-8.99,86,100,9.77,US,1670380658
35,vyselki,45.5794,39.6597,-3.63,70,92,6.52,RU,1670380658
36,atuona,-9.8,-139.0333,25.13,79,45,6.93,PF,1670380659
37,rikitea,-23.1203,-134.9692,24.12,81,10,8.56,PF,1670380430
38,ambon,-3.6954,128.1814,31.08,66,20,2.57,ID,1670380660
39,georgetown,5.4112,100.3354,28.83,83,20,2.06,MY,1670380641
40,praia da vitoria,38.7333,-27.0667,14.14,88,75,13.77,PT,1670380661
41,carnarvon,-24.8667,113.6333,23.5,64,55,7.06,AU,1670380661
42,bredasdorp,-34.5322,20.0403,14.0,79,0,0.79,ZA,1670380662
43,bengkulu,-3.8004,102.2655,28.29,66,99,1.07,ID,1670380662
44,busselton,-33.65,115.3333,22.89,37,1,2.58,AU,1670380663
45,mankato,44.1636,-93.9994,-3.36,94,0,0.0,US,1670380663
46,dawson creek,55.7666,-120.2362,-21.2,71,0,3.6,CA,1670380664
47,albany,42.6001,-73.9662,11.35,91,100,2.68,US,1670380286
48,mahebourg,-20.4081,57.7,24.58,94,75,1.54,MU,1670380665
49,mataura,-46.1927,168.8643,17.49,35,8,3.74,NZ,1670380665
50,maneadero,31.7167,-116.5667,13.94,79,7,2.24,MX,1670380666
51,dingle,10.9995,122.6711,28.74,69,32,5.68,PH,1670380666
52,castro,-24.7911,-50.0119,17.59,94,4,0.48,BR,1670380667
53,bluff,-46.6,168.3333,17.67,60,41,8.93,NZ,1670380667
54,matveyevka,52.15,56.1833,-22.97,90,8,1.31,RU,1670380668
55,ribeira grande,38.5167,-28.7,14.32,81,100,7.15,PT,1670380668
56,kapaa,22.0752,-159.319,27.99,85,75,3.6,US,1670380669
57,alice springs,-23.7,133.8833,37.75,14,16,1.54,AU,1670380566
58,nanortalik,60.1432,-45.2371,1.89,98,100,1.98,GL,1670380472
59,bac lieu,9.285,105.7244,25.15,90,100,2.48,VN,1670380670
60,kloulklubed,7.0419,134.2556,25.28,76,100,4.53,PW,1670380670
61,burdur,37.7203,30.2908,0.39,100,100,0.0,TR,1670380671
62,punta arenas,-53.15,-70.9167,5.06,56,40,5.66,CL,1670380305
63,yellowknife,62.456,-114.3525,-33.58,68,40,2.06,CA,1670380672
64,richards bay,-28.783,32.0377,20.09,90,100,1.94,ZA,1670380672
65,jaypur,18.85,82.5833,19.98,44,76,1.97,IN,1670380673
66,kruisfontein,-34.0033,24.7314,12.71,82,0,1.68,ZA,1670380673
67,qaanaaq,77.484,-69.3632,-1.78,95,100,4.89,GL,1670380674
68,hermanus,-34.4187,19.2345,15.48,68,0,1.36,ZA,1670380513
69,jalu,29.0331,21.5482,16.71,29,10,3.54,LY,1670380674
70,aripuana,-9.1667,-60.6333,22.35,97,100,0.5,BR,1670380675
71,touros,-5.1989,-35.4608,25.32,82,31,5.42,BR,1670380423
72,iqaluit,63.7506,-68.5145,-10.15,67,75,4.63,CA,1670380470
73,esperance,-33.8667,121.9,18.2,50,48,5.98,AU,1670380676
74,dno,57.8277,29.9637,-4.82,94,100,5.04,RU,1670380677
75,port elizabeth,-33.918,25.5701,14.16,96,0,1.54,ZA,1670380678
76,ambilobe,-13.2,49.05,23.56,78,0,1.12,MG,1670380678
77,cidreira,-30.1811,-50.2056,21.04,84,66,2.86,BR,1670380679
78,khatanga,71.9667,102.5,-26.23,98,98,3.56,RU,1670380679
79,upernavik,72.7868,-56.1549,-2.3,79,100,6.12,GL,1670380679
80,butaritari,3.0707,172.7902,26.89,80,99,5.0,KI,1670380680
81,salmon arm,50.6998,-119.3024,-4.38,93,90,0.0,CA,1670380575
82,isiro,2.7739,27.616,17.09,96,98,1.02,CD,1670380681
83,saint-philippe,-21.3585,55.7679,24.77,80,81,6.58,RE,1670380521
84,hobart,-42.8794,147.3294,17.81,62,40,6.17,AU,1670380087
85,necochea,-38.5473,-58.7368,15.71,80,5,5.3,AR,1670380682
86,longkou,37.6508,120.3286,6.62,49,0,5.62,CN,1670380683
87,tasiilaq,65.6145,-37.6368,1.09,71,6,4.04,GL,1670380683
88,arraial do cabo,-22.9661,-42.0278,21.98,94,100,4.12,BR,1670380684
89,lebu,-37.6167,-73.65,14.05,82,35,0.64,CL,1670380443
90,port alfred,-33.5906,26.891,16.21,92,0,0.45,ZA,1670380685
91,ponta do sol,32.6667,-17.1,21.67,94,94,6.21,PT,1670380686
92,nikolskoye,59.7035,30.7861,-5.05,93,100,4.01,RU,1670380467
93,brae,60.3964,-1.353,2.79,66,100,11.03,GB,1670380526
94,waddan,29.1614,16.139,15.74,43,3,2.62,LY,1670380688
95,severo-kurilsk,50.6789,156.125,-0.08,84,83,5.2,RU,1670380688
96,bima,-8.4667,118.7167,33.17,51,65,0.7,ID,1670380689
97,altamont,42.2068,-121.7372,-1.24,80,0,0.0,US,1670380511
98,thompson,55.7435,-97.8558,-27.91,69,40,5.66,CA,1670380690
99,comodoro rivadavia,-45.8667,-67.5,17.92,29,0,4.63,AR,1670380638
100,tres picos,15.8667,-93.5333,24.26,67,17,1.71,MX,1670380691
101,la asuncion,11.0333,-63.8628,22.85,94,42,2.57,VE,1670380692
102,cape town,-33.9258,18.4232,15.62,81,0,1.03,ZA,1670380692
103,antalaha,-14.9003,50.2788,22.31,79,2,2.65,MG,1670380693
104,lisakovsk,52.5369,62.4936,-25.15,100,93,1.67,KZ,1670380694
105,genoa,44.4129,8.9573,10.68,78,0,7.2,IT,1670380694
106,tateyama,34.9833,139.8667,12.37,63,62,2.59,JP,1670380695
107,ust-ilimsk,58.0006,102.6619,-13.47,91,100,5.88,RU,1670380560
108,nome,64.5011,-165.4064,-8.96,86,0,0.0,US,1670380696
109,leh,34.1667,77.5833,-8.08,70,52,0.78,IN,1670380697
110,san luis,-33.295,-66.3356,23.99,47,0,7.35,AR,1670380697
111,kentau,43.5206,68.5094,-9.7,62,0,2.31,KZ,1670380698
112,longyearbyen,78.2186,15.6401,-11.09,57,20,6.17,SJ,1670380493
113,baykit,61.67,96.37,-10.42,90,100,4.46,RU,1670380699
114,saskylakh,71.9167,114.0833,-30.9,93,76,6.19,RU,1670380700
115,hambantota,6.1241,81.1185,24.19,100,20,2.57,LK,1670380700
116,hilo,19.7297,-155.09,25.85,85,20,4.12,US,1670380518
117,henties bay,-22.116,14.2845,12.92,93,21,1.19,NA,1670380701
118,jiblah,13.9216,44.1467,12.26,72,8,1.0,YE,1670380702
119,waipawa,-41.4122,175.5153,13.28,53,66,5.3,NZ,1670380702
120,pisco,-13.7,-76.2167,19.03,82,0,6.17,PE,1670380703
121,iquitos,-3.7481,-73.2472,22.02,100,75,1.03,PE,1670380704
122,clyde river,70.4692,-68.5914,-13.87,92,40,1.03,CA,1670380705
123,tuatapere,-46.1333,167.6833,20.07,46,60,3.29,NZ,1670380706
124,sao joao da barra,-21.6403,-41.0511,22.38,94,100,3.79,BR,1670380706
125,ngunguru,-35.6167,174.5,16.2,92,100,11.76,NZ,1670380707
126,avera,33.194,-82.5271,15.21,98,98,1.9,US,1670380637
127,itacarambi,-15.1022,-44.0919,20.48,88,72,0.95,BR,1670380708
128,muli,2.9167,73.5667,26.63,76,73,3.64,MV,1670380709
129,tiksi,71.6872,128.8694,-34.12,100,100,1.11,RU,1670380709
130,kerva,55.6117,39.5766,-9.47,73,44,3.63,RU,1670380710
131,mikumi,-7.4041,36.9831,22.32,81,80,2.05,TZ,1670380711
132,san cristobal,7.7669,-72.225,19.1,95,37,1.23,VE,1670380711
133,coari,-4.085,-63.1414,23.24,97,89,0.68,BR,1670380713
134,razdolinsk,58.4211,94.6658,-14.11,91,100,5.25,RU,1670380714
135,havelock,34.8791,-76.9013,17.74,90,40,3.6,US,1670380592
136,togur,58.3631,82.8265,-12.93,95,100,3.36,RU,1670380715
137,tura,25.5198,90.2201,20.75,63,44,0.62,IN,1670380479
138,batsfjord,70.6345,29.7185,1.96,100,100,5.14,NO,1670380716
139,klaksvik,62.2266,-6.589,2.51,73,100,11.03,FO,1670380716
140,amnat charoen,15.9167,104.75,25.26,64,39,7.9,TH,1670380717
141,tyssedal,60.1165,6.562,0.48,97,83,2.1,NO,1670380718
142,freeport,40.6576,-73.5832,13.88,89,100,4.63,US,1670380676
143,at-bashi,41.1702,75.8106,-11.59,87,94,0.57,KG,1670380719
144,ardesen,41.1911,40.9875,11.26,65,99,1.6,TR,1670380719
145,the valley,18.217,-63.0578,25.61,64,2,7.38,AI,1670380720
146,alyangula,-13.8483,136.4192,31.19,54,83,5.17,AU,1670380585
147,hasaki,35.7333,140.8333,14.05,41,36,3.0,JP,1670380721
148,sanming,26.2486,117.6186,14.38,81,99,1.23,CN,1670380464
149,chicama,-7.8447,-79.1469,17.3,83,72,2.14,PE,1670380722
150,road town,18.4167,-64.6167,26.05,66,8,7.72,VG,1670380722
151,thinadhoo,0.5333,72.9333,27.92,72,61,6.19,MV,1670380723
152,port-gentil,-0.7193,8.7815,26.08,81,100,3.99,GA,1670380723
153,saryozek,44.3583,77.9753,-11.66,89,79,1.43,KZ,1670380724
154,yar-sale,66.8333,70.8333,-18.22,92,41,3.43,RU,1670380724
155,gilgit,35.9221,74.3087,3.31,44,39,1.46,PK,1670380725
156,ambovombe,-25.1667,46.0833,24.75,76,88,2.38,MG,1670380725
157,prince rupert,54.3161,-130.3201,4.83,93,100,9.77,CA,1670380726
158,angoche,-16.2325,39.9086,25.12,86,26,3.85,MZ,1670380726
159,zhangye,38.9342,100.4517,-4.72,59,30,2.09,CN,1670380727
160,avarua,-21.2078,-159.775,25.03,88,100,5.66,CK,1670380727
161,buchanan,5.8808,-10.0467,25.28,87,31,1.78,LR,1670380728
162,vila velha,-20.3297,-40.2925,23.97,90,75,3.13,BR,1670380728
163,ancud,-41.8697,-73.8203,13.24,86,100,3.1,CL,1670380729
164,kalino,58.2504,57.6085,-17.03,98,95,1.64,RU,1670380729
165,dubbo,-32.25,148.6167,22.07,40,100,5.14,AU,1670380730
166,tiarei,-17.5333,-149.3333,29.01,78,15,7.26,PF,1670380730
167,vilyuysk,63.7553,121.6247,-20.37,98,100,2.97,RU,1670380731
168,kulhudhuffushi,6.6221,73.07,27.26,75,90,3.54,MV,1670380731
169,ilulissat,69.2167,-51.1,1.01,60,93,7.72,GL,1670380732
170,yulara,-25.2406,130.9889,36.79,19,9,2.66,AU,1670380554
171,yeppoon,-23.1333,150.7333,33.88,52,0,4.53,AU,1670380542
172,balikpapan,-1.2675,116.8289,29.55,70,20,2.06,ID,1670380647
173,grand-lahou,5.1367,-5.0242,25.42,88,73,3.42,CI,1670380733
174,nishihara,26.1842,127.7558,20.6,56,75,7.2,JP,1670380734
175,chara,56.9064,118.2631,-17.86,76,100,2.23,RU,1670380734
176,san quintin,30.4833,-115.95,14.15,73,0,4.71,MX,1670380508
177,kurilsk,45.2333,147.8833,2.33,58,100,4.67,RU,1670380735
178,san ramon,37.7799,-121.978,11.01,86,0,1.54,US,1670380450
179,cabedelo,-6.9811,-34.8339,25.37,81,8,4.7,BR,1670380736
180,talnakh,69.4865,88.3972,-9.64,96,100,5.23,RU,1670380737
181,nsanje,-16.92,35.262,24.19,82,34,1.44,MW,1670380737
182,aykhal,66.0,111.5,-19.85,97,100,8.57,RU,1670380738
183,saint-michel-des-saints,46.6834,-73.9159,0.52,99,100,0.98,CA,1670380485
184,loa janan,-0.583,117.095,29.08,74,58,1.47,ID,1670380738
185,codrington,-38.2667,141.9667,15.05,57,100,6.44,AU,1670380632
186,cockburn town,21.4612,-71.1419,26.21,57,47,9.21,TC,1670380739
187,hobyo,5.3505,48.5268,25.82,81,96,5.9,SO,1670380593
188,south yuba city,39.1166,-121.6391,10.94,82,0,1.54,US,1670380740
189,provideniya,64.3833,-173.3,-3.94,86,40,5.0,RU,1670380740
190,lively,46.4334,-81.1498,-4.99,96,100,1.95,CA,1670380741
191,samarai,-10.6167,150.6667,29.16,69,99,4.28,PG,1670380741
192,kantunilkin,21.0917,-87.45,19.94,90,3,1.3,MX,1670380742
193,currais novos,-6.2608,-36.5178,22.19,81,6,5.24,BR,1670380743
194,torbay,47.6666,-52.7314,1.99,97,100,4.12,CA,1670380506
195,saint-augustin,51.226,-58.6502,-5.62,91,68,2.28,CA,1670380518
196,los llanos de aridane,28.6585,-17.9182,20.86,97,20,4.63,ES,1670380744
197,tuktoyaktuk,69.4541,-133.0374,-27.0,63,20,6.69,CA,1670380745
198,victoria,22.2855,114.1577,20.69,73,35,2.68,HK,1670380607
199,nan,18.8333,100.6667,22.01,88,0,1.03,TH,1670380746
200,trincomalee,8.5711,81.2335,26.2,79,100,6.95,LK,1670380746
201,siddipet,18.1,78.85,20.57,55,65,3.67,IN,1670380747
202,koscierzyna,54.1223,17.9812,0.84,95,100,3.74,PL,1670380748
203,kitimat,54.0524,-128.6534,1.62,26,100,1.73,CA,1670380748
204,yumen,40.2833,97.2,-7.35,76,91,2.89,CN,1670380749
205,norman wells,65.282,-126.8329,-31.98,68,75,0.0,CA,1670380749
206,skagen,57.7209,10.5839,2.65,66,100,5.42,DK,1670380750
207,sinyavskoye,47.277,39.2789,-5.69,65,53,8.1,RU,1670380751
208,kaeo,-35.1,173.7833,17.4,94,100,9.26,NZ,1670380751
209,puerto escondido,15.85,-97.0667,26.46,69,20,1.54,MX,1670380752
210,saint-nazaire,47.2833,-2.2,5.99,75,100,6.17,FR,1670380753
211,hithadhoo,-0.6,73.0833,27.78,75,84,5.54,MV,1670380754
212,bahia blanca,-38.7196,-62.2724,19.6,49,0,2.68,AR,1670380754
213,maragogi,-9.0122,-35.2225,24.28,84,19,1.75,BR,1670380755
214,male,4.1748,73.5089,27.97,83,75,2.57,MV,1670380756
215,montauban,44.0833,1.5,8.25,58,100,0.99,FR,1670380757
216,grindavik,63.8424,-22.4338,-0.03,93,40,3.6,IS,1670380757
217,japura,-0.3167,102.35,27.55,83,94,0.99,ID,1670380758
218,buala,-8.145,159.5921,28.87,73,93,1.56,SB,1670380759
219,veraval,20.9,70.3667,22.32,51,1,5.18,IN,1670380759
220,gorom-gorom,14.4439,-0.2361,24.61,18,47,3.85,BF,1670380760
221,oranjemund,-28.55,16.4333,13.28,92,2,2.08,NA,1670380761
222,chokurdakh,70.6333,147.9167,-21.17,98,100,1.74,RU,1670380761
223,manaus,-3.1019,-60.025,26.27,89,0,0.0,BR,1670380762
224,cap malheureux,-19.9842,57.6142,24.7,76,2,2.68,MU,1670380762
225,souillac,-20.5167,57.5167,23.21,94,75,1.54,MU,1670380763
226,rongcheng,30.634,117.8517,8.88,81,100,0.93,CN,1670380763
227,tilichiki,60.4667,166.1,-10.16,80,97,2.65,RU,1670380764
228,santa rosa,14.3122,121.1114,31.16,67,52,4.5,PH,1670380600
229,ilinskiy,55.619,38.1182,-9.71,81,49,4.11,RU,1670380765
230,tevaitoa,-16.7833,-151.5,26.82,75,27,7.85,PF,1670380766
231,iskateley,67.6803,53.1512,-9.46,95,100,6.24,RU,1670380766
232,isangel,-19.55,169.2667,29.47,69,100,2.48,VU,1670380572
233,melenki,55.3343,41.6295,-11.28,79,55,3.42,RU,1670380767
234,killybegs,54.6333,-8.45,5.58,73,98,2.77,IE,1670380767
235,shipley,53.8333,-1.7667,2.39,87,23,2.24,GB,1670380769
236,banda aceh,5.5577,95.3222,24.62,88,100,3.86,ID,1670380769
237,sobolevo,54.4299,31.8996,-9.63,82,99,5.81,RU,1670380770
238,auki,-8.7676,160.7034,28.23,77,60,0.38,SB,1670380771
239,port lincoln,-34.7333,135.8667,17.86,57,53,8.81,AU,1670380771
240,marsh harbour,26.5412,-77.0636,23.95,67,8,6.55,BS,1670380772
241,teguise,29.0605,-13.564,15.12,94,0,2.06,ES,1670380298
242,vestmannaeyjar,63.4427,-20.2734,0.88,70,17,8.56,IS,1670380773
243,sao felix do xingu,-6.6447,-51.995,23.11,95,89,0.64,BR,1670380773
244,barra patuca,15.8,-84.2833,24.7,83,16,5.13,HN,1670380562
245,mweka,-4.85,21.5667,18.45,99,96,0.26,CD,1670380774
246,zhanaozen,43.3,52.8,-8.05,79,3,4.31,KZ,1670380775
247,ayan,56.45,138.1667,-15.21,61,64,7.26,RU,1670380776
248,agadir,30.4202,-9.5982,15.25,69,63,3.48,MA,1670380776
249,mersing,2.4312,103.8405,28.95,74,20,3.6,MY,1670380777
250,port-cartier,50.0334,-66.8654,2.12,97,100,2.91,CA,1670380557
251,kampong cham,11.9934,105.4635,27.1,71,100,7.34,KH,1670380778
252,geraldton,-28.7667,114.6,33.23,24,0,8.23,AU,1670380778
253,takoradi,4.8845,-1.7554,25.58,88,96,3.21,GH,1670380779
254,wajir,1.7471,40.0573,24.66,75,26,3.45,KE,1670380779
255,cherskiy,68.75,161.3,-25.99,98,100,4.61,RU,1670380780
256,chapais,49.7834,-74.8492,-5.12,97,96,2.06,CA,1670380780
257,netanya,32.3329,34.8599,15.12,76,32,1.58,IL,1670380781
258,san juan,-31.5375,-68.5364,27.35,34,13,3.37,AR,1670380781
259,bam,29.106,58.357,9.3,51,1,0.42,IR,1670380727
260,palmer,42.1584,-72.3287,12.36,83,100,2.06,US,1670380782
261,qurayyat,31.3318,37.3428,8.1,87,40,2.57,SA,1670380783
262,kununurra,-15.7667,128.7333,33.99,55,94,2.06,AU,1670380576
263,along,28.1667,94.7667,18.61,45,0,0.14,IN,1670380767
264,pontes e lacerda,-15.2261,-59.3353,22.05,95,93,0.54,BR,1670380784
265,trinidad,-14.8333,-64.9,22.86,96,100,1.32,BO,1670380784
266,jacmel,18.2342,-72.5347,24.91,72,12,2.42,HT,1670380784
267,charters towers,-20.1,146.2667,35.94,21,4,4.4,AU,1670380785
268,manokwari,-0.8667,134.0833,28.4,70,79,3.11,ID,1670380576
269,portobelo,9.55,-79.65,24.42,79,25,5.58,PA,1670380786
270,korla,41.7597,86.1469,-2.69,41,88,0.6,CN,1670380786
271,pevek,69.7008,170.3133,-19.83,100,91,0.79,RU,1670380787
272,hofn,64.2539,-15.2082,0.46,61,7,4.52,IS,1670380787
273,sedlcany,49.6606,14.4266,3.1,49,96,4.22,CZ,1670380788
274,imeni poliny osipenko,52.4201,136.4853,-17.83,78,31,2.56,RU,1670380788
275,mandera,3.9366,41.867,25.56,72,64,4.22,KE,1670380789
276,harlingen,26.1906,-97.6961,23.36,95,0,6.17,US,1670380789
277,pervomayskoye,43.919,46.7102,1.23,76,99,6.85,RU,1670380790
278,hanzhong,33.0728,107.0303,8.28,56,85,0.47,CN,1670380790
279,marsa matruh,31.3525,27.2453,15.09,76,98,3.53,EG,1670380791
280,husavik,66.0449,-17.3389,-2.45,92,85,1.16,IS,1670380791
281,fonte boa,-2.4959,-66.2662,22.83,98,99,0.33,BR,1670380792
282,marawi,7.9986,124.2928,26.36,67,98,2.45,PH,1670380792
283,shellbrook,53.2168,-106.4011,-33.43,96,11,2.29,CA,1670380793
284,cabo san lucas,22.8909,-109.9124,26.17,73,0,2.06,MX,1670380793
285,berekum,7.4534,-2.584,21.22,87,16,1.88,GH,1670380794
286,biabou,13.2,-61.1333,25.65,74,92,3.39,VC,1670380794
287,sitka,57.0531,-135.33,4.94,87,100,3.6,US,1670380549
288,marzuq,14.4,46.4667,14.59,76,9,1.57,YE,1670380795
289,nara,34.6851,135.8049,11.09,44,97,4.95,JP,1670380714
290,yerbogachen,61.2767,108.0108,-11.68,91,100,6.77,RU,1670380796
291,oktyabrskoye,43.0645,44.7417,-4.92,100,49,4.0,RU,1670380797
292,yamada,39.4667,141.95,6.38,68,68,2.84,JP,1670380797
293,katangli,51.7102,143.2326,-12.53,77,100,3.15,RU,1670380797
294,kandrian,-6.2167,149.55,29.26,72,100,2.42,PG,1670380798
295,bom jardim,-7.7958,-35.5872,21.22,89,10,1.29,BR,1670380798
296,port blair,11.6667,92.75,27.02,83,100,4.12,IN,1670380537
297,asilah,35.465,-6.0348,13.98,83,100,2.94,MA,1670380799
298,kavieng,-2.5744,150.7967,28.49,74,92,4.63,PG,1670380552
299,omboue,-1.5746,9.2618,23.14,93,100,2.22,GA,1670380800
300,north platte,41.1239,-100.7654,1.32,58,0,0.45,US,1670380801
301,lavrentiya,65.5833,-171.0,-6.64,76,100,3.78,RU,1670380801
302,nouadhibou,20.931,-17.0347,18.95,81,63,5.72,MR,1670380802
303,ulladulla,-35.35,150.4667,27.36,33,60,4.32,AU,1670380802
304,prijepolje,43.3719,19.6406,7.76,94,100,1.1,RS,1670380803
305,celestun,20.8667,-90.4,24.4,77,39,6.89,MX,1670380804
306,zhigansk,66.7697,123.3711,-28.41,94,100,9.06,RU,1670380805
307,bereda,43.2686,-7.5406,9.12,100,100,0.94,ES,1670380806
308,lagoa,39.05,-27.9833,14.47,78,98,15.87,PT,1670380806
309,saint-pierre,-21.3393,55.4781,24.95,78,0,9.77,RE,1670380807
310,half moon bay,37.4636,-122.4286,11.68,87,20,0.0,US,1670380808
311,olafsvik,64.8945,-23.7142,4.01,76,92,3.07,IS,1670380808
312,xinqing,48.2333,129.5,-10.94,83,100,3.25,CN,1670380809
313,sao paulo de olivenca,-3.3783,-68.8725,21.61,99,100,1.26,BR,1670380810
314,saint george,37.1041,-113.5841,9.97,77,40,1.79,US,1670380619
315,port keats,-14.25,129.55,33.29,50,14,4.77,AU,1670380811
316,livingstonia,-10.606,34.1063,18.63,75,87,1.42,MW,1670380811
317,san carlos de bariloche,-41.1456,-71.3082,11.86,62,20,2.57,AR,1670380812
318,pacific grove,36.6177,-121.9166,10.29,87,20,0.45,US,1670380544
319,flinders,-34.5833,150.8552,27.25,55,86,1.79,AU,1670380813
320,bowen,-20.0167,148.2333,28.42,56,5,4.24,AU,1670380814
321,delta del tigre,-34.7633,-56.3853,26.61,46,0,5.26,UY,1670380814
322,faya,18.3851,42.4509,11.29,71,0,1.37,SA,1670380815
323,krasnyye chetai,55.6887,46.1386,-14.44,88,79,2.68,RU,1670380816
324,maniitsoq,65.4167,-52.9,0.49,91,100,10.54,GL,1670380817
325,kotel,42.8833,26.45,3.75,94,84,1.14,BG,1670380817
326,riyadh,24.6877,46.7219,17.08,42,2,1.08,SA,1670380557
327,immokalee,26.4187,-81.4173,22.97,87,20,0.0,US,1670380682
328,phalombe,-15.8064,35.6507,20.72,82,70,1.41,MW,1670380819
329,mangrol,21.1167,70.1167,21.44,48,0,4.36,IN,1670380819
330,college,64.8569,-147.8028,-10.52,89,100,0.0,US,1670380770
331,yerkoy,39.6381,34.4672,2.56,79,1,1.29,TR,1670380820
332,dukat,62.55,155.55,-31.54,92,8,0.93,RU,1670380821
333,ketchikan,55.3422,-131.6461,3.99,98,100,2.89,US,1670380525
334,dolores,-36.3132,-57.6792,18.97,67,53,3.13,AR,1670380822
335,coahuayana,18.7333,-103.6833,24.27,90,38,0.73,MX,1670380823
336,saldanha,-33.0117,17.9442,10.03,84,0,1.58,ZA,1670380824
337,guhagar,17.4842,73.1929,25.34,48,1,2.26,IN,1670380824
338,funtua,11.5233,7.3081,16.99,31,96,4.24,NG,1670380825
339,newport,51.5877,-2.9984,3.4,69,19,3.38,GB,1670380826
340,lipin bor,60.2622,37.9763,-5.42,81,100,6.02,RU,1670380826
341,ferkessedougou,9.6,-5.2,23.98,35,7,1.35,CI,1670380828
342,dongning,44.0622,131.1207,-3.68,51,4,6.12,CN,1670380828
343,shahpura,27.3833,75.9667,16.34,30,0,1.07,IN,1670380829
344,kuntaur,13.6667,-14.8833,26.82,39,7,2.89,GM,1670380829
345,kauhajoki,62.4333,22.1833,-8.01,92,86,1.83,FI,1670380830
346,fare,-16.7,-151.0167,26.8,75,24,8.03,PF,1670380831
347,monrovia,6.3005,-10.7969,25.54,85,30,2.21,LR,1670380655
348,elmadag,39.9208,33.2308,1.3,82,11,0.96,TR,1670380832
349,caraballeda,10.6112,-66.8522,28.04,78,40,1.03,VE,1670380833
350,taywarah,33.35,64.4167,-1.34,87,98,1.5,AF,1670380834
351,roald,62.5833,6.1333,2.64,80,75,6.69,NO,1670380834
352,westport,41.1415,-73.3579,13.76,88,100,1.34,US,1670380835
353,zafra,38.4167,-6.4167,7.99,94,57,1.44,ES,1670380835
354,bilibino,68.0546,166.4372,-25.16,100,100,1.71,RU,1670380836
355,jakar,27.5492,90.7525,10.6,50,5,1.33,BT,1670380836
356,kuching,1.55,110.3333,30.16,83,40,1.54,MY,1670380548
357,opunake,-39.4556,173.8583,20.47,67,100,9.05,NZ,1670380837
358,abu dhabi,24.4667,54.3667,22.01,85,0,1.54,AE,1670380733
359,soeng sang,14.4264,102.4606,23.46,75,43,2.91,TH,1670380838
360,taoudenni,22.6783,-3.9836,24.97,24,0,1.33,ML,1670380839
361,te anau,-45.4167,167.7167,20.04,50,67,3.01,NZ,1670380840
362,paragominas,-2.9667,-47.4833,22.95,88,36,1.47,BR,1670380840
363,chernyshevskiy,63.0128,112.4714,-11.0,89,100,5.77,RU,1670380841
364,fort nelson,58.8053,-122.7002,-28.23,76,100,1.54,CA,1670380841
365,lhokseumawe,5.1801,97.1507,24.47,93,100,2.17,ID,1670380842
366,muisne,0.6,-80.0333,23.99,80,89,2.73,EC,1670380842
367,kahului,20.8947,-156.47,27.13,67,75,5.66,US,1670380843
368,zlobin,45.2924,14.6541,5.61,73,75,2.57,HR,1670380843
369,jatai,-17.8814,-51.7144,20.46,76,99,1.58,BR,1670380844
370,inhambane,-23.865,35.3833,24.52,86,6,2.42,MZ,1670380844
371,salta,-24.7859,-65.4117,25.33,50,40,2.06,AR,1670380845
372,luleburgaz,41.4039,27.3592,6.33,93,89,0.84,TR,1670380845
373,wanning,18.8003,110.3967,20.89,90,100,6.6,CN,1670380846
374,milas,37.3164,27.7839,4.64,100,100,2.06,TR,1670380846
375,baragaon,25.4333,82.8167,12.99,94,0,2.06,IN,1670380766
376,kattivakkam,13.2167,80.3167,25.05,68,100,7.01,IN,1670380847
377,sao filipe,14.8961,-24.4956,23.01,75,17,1.88,CV,1670380848
378,belyy yar,53.6039,91.3903,-27.3,61,40,0.0,RU,1670380848
379,constitucion,-35.3333,-72.4167,14.62,69,0,3.88,CL,1670380849
380,ahuimanu,21.4447,-157.8378,27.84,79,40,5.66,US,1670380849
381,atambua,-9.1061,124.8925,29.8,52,77,1.72,ID,1670380850
382,sanmenxia,34.7747,111.1814,6.57,38,100,0.79,CN,1670380850
383,buzmeyin,38.0507,58.2056,-2.15,86,20,3.09,TM,1670380851
384,qasigiannguit,68.8193,-51.1922,1.14,63,78,10.51,GL,1670380851
385,svatove,49.4103,38.1503,-7.16,66,1,6.85,UA,1670380852
386,gat,31.61,34.7642,15.22,84,9,2.5,IL,1670380852
387,mountain home,43.133,-115.6912,-2.29,100,75,0.0,US,1670380853
388,tabou,4.423,-7.3528,25.12,87,73,2.78,CI,1670380853
389,cap-haitien,19.7578,-72.2042,25.09,63,16,5.04,HT,1670380854
390,palana,59.1167,159.9667,-6.57,87,100,6.25,RU,1670380855
391,sakaraha,-22.9,44.5333,23.19,76,4,0.86,MG,1670380855
392,chaiyaphum,15.75,102.0,26.14,66,18,6.82,TH,1670380856
393,rorvik,64.8621,11.2373,-0.94,100,75,1.54,NO,1670380856
394,dospat,41.65,24.1667,0.67,95,98,0.73,BG,1670380857
395,beziers,43.3476,3.219,7.96,93,0,1.03,FR,1670380857
396,chumikan,54.7183,135.315,-18.22,79,63,7.51,RU,1670380858
397,vila franca do campo,37.7167,-25.4333,14.23,86,52,7.23,PT,1670380858
398,la palma,33.8464,-118.0467,15.03,82,20,1.54,US,1670380859
399,shetpe,44.1667,52.1167,-8.73,77,6,3.31,KZ,1670380859
400,puerto del rosario,28.5004,-13.8627,18.86,88,0,2.57,ES,1670380860
401,xiongyue,40.1774,122.1228,2.69,36,0,6.74,CN,1670380860
402,makakilo city,21.3469,-158.0858,27.18,71,0,5.66,US,1670380861
403,salalah,17.0151,54.0924,23.05,60,0,3.09,OM,1670380862
404,abay,49.6311,72.8539,-31.79,97,15,1.77,KZ,1670380862
405,saint anthony,45.0205,-93.218,-4.32,81,75,3.09,US,1670380863
406,bathsheba,13.2167,-59.5167,23.36,95,20,2.57,BB,1670380864
407,lucapa,-8.4192,20.7447,17.95,93,100,0.3,AO,1670380865
408,laguna,38.421,-121.4238,11.66,79,0,2.06,US,1670380865
409,bambous virieux,-20.3428,57.7575,24.56,94,75,1.54,MU,1670380866
410,bure,10.7,37.0667,12.13,59,66,1.76,ET,1670380867
411,goure,13.9835,10.2704,18.16,18,5,4.93,NE,1670380868
412,chalus,36.655,51.4204,5.7,87,40,0.0,IR,1670380868
413,lata,40.1629,-8.3327,9.49,95,99,1.42,PT,1670380869
414,uchiza,-8.4592,-76.4633,20.81,89,99,2.0,PE,1670380869
415,mareeba,-17.0,145.4333,34.69,36,60,2.66,AU,1670380699
416,itarema,-2.9248,-39.9167,25.57,76,18,5.93,BR,1670380871
417,novoselytsya,48.2193,26.2653,3.1,98,94,1.73,UA,1670380871
418,semey,50.4111,80.2275,-31.88,75,34,3.0,KZ,1670380872
419,farafangana,-22.8167,47.8333,23.09,86,22,1.73,MG,1670380873
420,tadine,-21.55,167.8833,26.64,81,100,3.89,NC,1670380874
421,arandas,20.7,-102.35,15.7,40,2,0.87,MX,1670380874
422,meulaboh,4.1363,96.1285,23.66,94,100,3.05,ID,1670380875
423,halvad,23.0167,71.1833,20.09,52,0,3.09,IN,1670380876
424,faanui,-16.4833,-151.75,26.8,75,21,7.61,PF,1670380877
425,swift current,50.2834,-107.8014,-30.55,76,0,2.06,CA,1670380877
426,sibolga,1.7427,98.7792,24.34,92,100,1.46,ID,1670380878
427,san andres,12.5847,-81.7006,28.01,69,20,5.66,CO,1670380879
428,lorengau,-2.0226,147.2712,28.05,79,97,2.93,PG,1670380879
429,porto novo,6.4965,2.6036,25.34,90,100,2.02,BJ,1670380655
430,kenai,60.5544,-151.2583,-1.03,99,100,0.0,US,1670380880
431,itinga,-16.6131,-41.7653,21.06,92,99,0.85,BR,1670380881
432,parfino,57.9731,31.6481,-4.48,77,100,5.31,RU,1670380882
433,oussouye,12.485,-16.5469,23.81,75,5,2.83,SN,1670380883
434,olinda,-8.0089,-34.8553,26.85,74,40,2.57,BR,1670380813
435,saysain,14.5611,120.3925,29.05,65,40,2.33,PH,1670380885
436,fortuna,40.5982,-124.1573,6.48,92,0,2.57,US,1670380885
437,lasa,46.6166,10.7002,1.49,80,20,2.01,IT,1670380886
438,pringsewu,-5.3582,104.9744,30.71,57,99,0.27,ID,1670380887
439,aklavik,68.2191,-135.0107,-21.12,89,100,5.52,CA,1670380888
440,arrecife,28.963,-13.5477,16.99,88,0,2.57,ES,1670380889
441,sembe,1.6481,14.5806,21.06,98,95,1.4,CG,1670380821
442,pombas,17.1503,-25.0201,18.88,74,14,2.38,CV,1670380890
443,khazar,41.9974,48.3332,3.09,96,100,3.71,RU,1670380890
444,narsaq,60.9167,-46.05,-0.88,95,92,1.98,GL,1670380891
445,gumdag,39.2061,54.5906,-2.15,45,29,7.37,TM,1670380891
446,mandalgovi,45.7625,106.2708,-10.6,40,28,3.13,MN,1670380892
447,puro,12.4841,123.3827,28.82,66,43,3.98,PH,1670380892
448,batagay,67.6333,134.6333,-40.84,100,92,0.31,RU,1670380893
449,labuhan,-6.8844,112.2051,29.3,67,99,0.84,ID,1670380894
450,obo,5.3998,26.4869,20.19,47,71,1.25,CF,1670380894
451,jardim de piranhas,-6.3786,-37.3519,26.17,59,5,4.81,BR,1670380895
452,beringovskiy,63.05,179.3167,-9.44,63,85,6.7,RU,1670380896
453,timizart,36.8,4.2667,13.71,74,97,2.06,DZ,1670380896
454,tucuma,-0.1833,-50.05,24.18,91,97,2.79,BR,1670380808
455,placido de castro,-10.3353,-67.1856,23.68,84,98,1.23,BR,1670380897
456,alfredo chaves,-20.635,-40.7497,21.81,96,100,1.02,BR,1670380898
457,bastia,42.6667,9.3333,13.5,86,86,0.89,FR,1670380899
458,noumea,-22.2763,166.4572,27.99,99,95,3.57,NC,1670380305
459,itamaraju,-17.0392,-39.5311,20.49,98,96,1.02,BR,1670380899
460,khonsa,27.0167,95.5667,19.07,54,2,1.21,IN,1670380900
461,manuk mangkaw,4.8,119.85,27.91,72,86,2.6,PH,1670380900
462,catumbela,-12.4314,13.5472,24.9,82,100,0.82,AO,1670380901
463,strezhevoy,60.7333,77.5889,-19.96,99,98,3.19,RU,1670380902
464,kikwit,-5.041,18.8162,20.42,99,100,0.99,CD,1670380902
465,coquimbo,-29.9533,-71.3436,14.85,94,0,1.54,CL,1670380903
466,requena,39.4883,-1.1004,9.33,89,100,1.26,ES,1670380903
467,namatanai,-3.6667,152.4333,29.2,68,85,4.73,PG,1670380904
468,bundaberg,-24.85,152.35,32.34,58,1,3.13,AU,1670380739
469,conde,-7.2597,-34.9075,24.7,88,40,1.54,BR,1670380905
470,oga,46.4631,10.347,-2.21,86,35,1.29,IT,1670380905
471,erzin,36.9559,36.2,12.97,65,73,1.69,TR,1670380906
472,bol,13.4586,14.7147,21.82,34,6,8.95,TD,1670380906
473,lisala,2.15,21.5167,20.21,97,78,0.82,CD,1670380907
474,caravelas,-17.7125,-39.2481,22.45,93,99,1.75,BR,1670380907
475,durango,24.8333,-104.8333,15.89,44,63,3.23,MX,1670380631
476,ocampo,21.65,-101.5,13.96,27,0,2.85,MX,1670380908
477,adrar,20.5022,-10.0711,23.53,35,0,2.68,MR,1670380908
478,bojnurd,37.4747,57.329,-5.03,93,0,1.03,IR,1670380909
479,campoverde,-8.4753,-74.8058,25.83,94,100,1.23,PE,1670380909
480,mana,5.6592,-53.7767,24.3,93,93,3.28,GF,1670380910
481,kyshtovka,56.555,76.6271,-19.87,100,89,1.99,RU,1670380911
482,hirara,24.8,125.2833,23.92,64,40,9.26,JP,1670380911
483,rio bananal,-19.265,-40.3333,21.0,97,100,1.4,BR,1670380912
484,tau,59.0667,5.9,1.2,77,1,7.94,NO,1670380912
485,kendari,-3.945,122.4989,31.86,55,47,1.29,ID,1670380913
486,la mitra,8.8422,-79.7867,24.76,87,54,2.27,PA,1670380913
487,atar,20.5169,-13.0499,23.13,39,4,1.09,MR,1670380914
488,sisophon,13.5859,102.9737,26.38,69,65,2.85,KH,1670380914
489,bitkine,11.9801,18.2138,20.11,23,2,3.36,TD,1670380914
490,muroto,33.2833,134.15,11.67,52,87,4.02,JP,1670380915
491,tomaszow mazowiecki,51.5313,20.0086,1.42,10,100,4.37,PL,1670380915
492,biloela,-24.4167,150.5,36.9,22,0,3.43,AU,1670380916
493,batticaloa,7.7102,81.6924,24.96,84,100,7.56,LK,1670380916
494,goderich,43.7501,-81.7165,4.95,93,100,1.54,CA,1670380883
495,usinsk,65.9939,57.5281,-14.27,87,100,9.63,RU,1670380917
496,cravo norte,6.3017,-70.2041,23.55,72,19,2.18,CO,1670380918
497,berlevag,70.8578,29.0864,1.97,80,75,5.14,NO,1670380918
498,pafos,34.7667,32.4167,12.88,76,20,4.12,CY,1670380919
499,goba,7.0167,39.9833,7.85,76,34,1.84,ET,1670380919
500,miyako,39.6367,141.9525,6.34,66,84,2.08,JP,1670380920
501,luyang,27.6239,110.0989,8.29,69,100,0.96,CN,1670380920
502,sauda,59.6506,6.3542,0.93,82,45,2.84,NO,1670380921
503,acari,-15.4311,-74.6158,21.3,73,100,1.21,PE,1670380921
504,aktau,43.65,51.2,-12.68,74,3,5.18,KZ,1670380922
505,daru,-9.0763,143.2092,29.73,58,100,3.95,PG,1670380661
506,ereymentau,51.6199,73.1033,-25.52,100,34,1.17,KZ,1670380923
507,vanavara,60.34,102.2797,-11.54,90,100,6.12,RU,1670380924
508,chuy,-33.6971,-53.4616,17.04,95,0,2.45,UY,1670380924
509,voh,-20.9667,164.7,27.38,80,97,1.91,NC,1670380925
510,general pico,-35.6566,-63.7568,24.94,35,1,2.85,AR,1670380848
511,ust-kuyga,70.0167,135.6,-41.35,99,71,0.67,RU,1670380926
512,hurghada,27.2574,33.8129,16.86,68,0,6.47,EG,1670380823
513,coos bay,43.3665,-124.2179,5.55,99,0,3.09,US,1670380743
514,martin,27.0837,-80.4164,24.42,89,0,2.9,US,1670380927
515,altay,47.8667,88.1167,-16.67,76,23,2.5,CN,1670380918
516,tiznit,29.5833,-9.5,14.39,66,65,1.27,MA,1670380928
517,lapua,62.9693,23.0088,-7.16,94,67,1.77,FI,1670380929
518,mahibadhoo,3.7833,72.9667,26.82,74,55,2.22,MV,1670380929
519,oranjestad,12.524,-70.027,26.06,81,20,3.09,AW,1670380652
520,pitimbu,-7.4706,-34.8086,25.33,81,20,3.92,BR,1670380909
521,asha,54.9973,57.2722,-22.01,99,13,0.92,RU,1670380931
522,byron bay,-28.65,153.6167,30.52,61,26,4.22,AU,1670380931
523,muros,42.7762,-9.0603,9.27,95,100,2.05,ES,1670380658
524,abu samrah,35.3029,37.1841,10.44,75,7,0.64,SY,1670380667
525,san policarpo,12.1791,125.5072,28.17,66,99,4.28,PH,1670380933
526,ust-maya,60.4167,134.5333,-25.78,95,100,2.28,RU,1670380934
527,morehead,37.2711,-87.1764,18.88,97,100,2.57,US,1670380788
528,najran,17.4924,44.1277,13.36,35,0,1.59,SA,1670380935
529,dibulla,11.2725,-73.3091,22.02,71,14,2.89,CO,1670380936
530,copiapo,-27.3667,-70.3333,14.83,62,100,0.75,CL,1670380937
531,amarillo,35.222,-101.8313,10.88,52,0,3.97,US,1670380678
532,namibe,-15.1961,12.1522,20.23,84,19,3.11,AO,1670380939
533,gladstone,-23.85,151.25,33.96,40,0,3.6,AU,1670380939
534,pasco,28.292,-82.4165,22.1,85,83,1.7,US,1670380940
535,paamiut,61.994,-49.6678,-0.66,91,91,5.64,GL,1670380653
536,kirakira,-10.4544,161.9205,29.44,73,60,2.49,SB,1670380942
537,vardo,70.3705,31.1107,1.99,93,100,4.12,NO,1670380942
538,ugoofaaru,5.6667,73.0,27.18,75,91,2.98,MV,1670380943
539,manono,-7.3,27.4167,19.05,95,91,1.34,CD,1670380943
540,tecoanapa,16.5167,-98.75,25.49,79,31,1.51,MX,1670380944
541,mbanza-ngungu,-5.25,14.8667,18.8,87,97,0.62,CD,1670380945
542,crystal lake,42.2411,-88.3162,4.47,90,100,0.89,US,1670380833
543,tra vinh,9.9347,106.3453,28.36,74,99,1.82,VN,1670380818
544,cayenne,4.9333,-52.3333,25.02,94,0,0.0,GF,1670380946
545,owerri,5.4833,7.0304,24.2,89,100,1.34,NG,1670380946
546,leopold,-38.1833,144.4667,20.1,61,75,9.26,AU,1670380947
547,moranbah,-22.0016,148.0466,35.69,22,0,1.37,AU,1670380948
548,guerrero negro,27.9769,-114.0611,15.89,67,30,5.15,MX,1670380948
549,sibu,2.3,111.8167,29.17,79,20,2.24,MY,1670380949
550,guarda,40.5373,-7.2658,2.35,96,99,1.09,PT,1670380950
551,petropavlovsk-kamchatskiy,53.0452,158.6483,-3.67,80,75,2.0,RU,1670380950
552,itoman,26.1247,127.6694,21.01,56,75,7.2,JP,1670380951
553,sinnamary,5.3833,-52.95,25.22,91,99,3.63,GF,1670380906
554,sirur,18.8333,74.3833,22.6,50,35,1.52,IN,1670380952
555,katav-ivanovsk,54.7531,58.1956,-20.78,98,18,1.29,RU,1670380953
556,nalgonda,17.05,79.2667,21.28,55,100,3.3,IN,1670380953
